stop_id,lat,lon,display_name
57,49.099805,6.138669,8<br>MAI<br>45
46,49.099927,6.138371,8<br>MAI<br>45
450,49.085890,6.146239,11ème<br>D'AVIATION
852,49.086159,6.145297,11ème<br>D'AVIATION
323,49.191534,6.034971,18<br>AOUT
322,49.191388,6.035001,18<br>AOUT
928,49.091774,6.161323,19<br>NOVEMBRE
929,49.092028,6.161481,19<br>NOVEMBRE
519,49.148061,6.171578,DEUX<br>FONTAINES
451,49.148956,6.171576,DEUX<br>FONTAINES
530,49.096271,6.245860,TRENTE<br>JOURS
536,49.096403,6.245779,TRENTE<br>JOURS
179,49.106303,6.191888,TROIS<br>EVECHES
101,49.090659,6.123135,TROIS<br>HAIES
115,49.090713,6.122693,TROIS<br>HAIES
161,49.139202,6.153451,QUATRE<br>BORNES
157,49.139403,6.153449,QUATRE<br>BORNES
362,49.094514,6.176234,QUATRE<br>VENTS
310,49.094382,6.175952,QUATRE<br>VENTS
806,49.189290,6.035000,ABBE<br>BAUZIN
802,49.189344,6.036790,ABBE<br>BAUZIN
591,49.071569,6.193588,AUBEPINE
588,49.073443,6.184514,ACACIAS
307,49.073284,6.184477,ACACIAS
706,49.076518,6.102841,ACTISUD<br>DUNIL
707,49.076467,6.102942,ACTISUD<br>DUNIL
6180,49.112572,6.199158,FELIX<br>ALCAN
6185,49.112733,6.197773,FELIX<br>ALCAN
81,49.094445,6.135356,ALGER
71,49.094330,6.134834,ALGER
55,49.097637,6.129110,ALSACE
48,49.097844,6.129581,ALSACE
388,49.121440,6.194683,ALSACE-LORRAINE
368,49.121304,6.195390,ALSACE-LORRAINE
720,49.167365,6.044078,AMANVILLERS<br>MAIRIE
735,49.167371,6.043769,AMANVILLERS<br>MAIRIE
602,49.064123,6.129319,AMAZON
680,49.103321,6.228833,AMPERE
679,49.103631,6.228814,AMPERE
249,49.080330,6.187050,APREMONT
578,49.080609,6.186506,APREMONT
6320,49.101866,6.224284,FRANCOIS<br>ARAGO
6325,49.101866,6.224284,FRANCOIS<br>ARAGO
2,49.100638,6.220992,FRANCOIS<br>ARAGO
35,49.100578,6.222063,FRANCOIS<br>ARAGO
576,49.101367,6.224181,FRANCOIS<br>ARAGO
577,49.101366,6.224181,FRANCOIS<br>ARAGO
767,49.050773,6.187018,ARBALETRIERS
296,49.101048,6.106695,ARDECHE
293,49.101426,6.106284,ARDECHE
141,49.105977,6.173652,ARENES
126,49.105932,6.173607,ARENES
571,49.095465,6.238675,ARIANE
568,49.094854,6.238771,ARIANE
244,49.075620,6.189540,ARMOISIERES
583,49.077294,6.189373,ARMOISIERES
309,49.072249,6.193072,AUBEPINE
499,49.122882,6.187083,ARSENAL
476,49.122881,6.187075,ARSENAL
454,49.092781,6.270088,ARS<br>LAQUENEXY
453,49.092863,6.270358,ARS<br>LAQUENEXY
826,49.075770,6.076469,ARS<br>SUR<br>MOSELLE
822,49.075910,6.076660,ARS<br>SUR<br>MOSELLE
6330,49.096509,6.226120,ARTS<br>ET<br>METIERS
6335,49.096509,6.226118,ARTS<br>ET<br>METIERS
390,49.120281,6.193512,ARTILLEURS
366,49.120190,6.193145,ARTILLEURS
725,49.142480,6.121819,ATELIERS<br>MUNICIPAUX
730,49.142460,6.121421,ATELIERS<br>MUNICIPAUX
429,49.094182,6.269990,AUBIGNY
702,49.058685,6.121884,AUGNY<br>MAIRIE
711,49.058673,6.121897,AUGNY<br>MAIRIE
608,49.127244,6.207680,AULNES
598,49.127299,6.207678,AULNES
5020,49.064094,6.167042,AVENUE<br>DE<br>MAGNY
5023,49.067314,6.168029,AZALEES
488,49.129598,6.230058,BARBE
487,49.129374,6.229538,BARBE
408,49.136653,6.143134,BAUCHEZ
401,49.136481,6.142772,BAUCHEZ
761,49.108830,6.087670,BAZIN
554,49.075849,6.187141,BEAUSOLEIL
584,49.075712,6.186836,BEAUSOLEIL
6200,49.110649,6.210641,BELLETANCHE
6205,49.110649,6.210640,BELLETANCHE
469,49.066876,6.142687,BELLE<br>FONTAINE
471,49.066950,6.142790,BELLE<br>FONTAINE
24,49.110186,6.209649,BELLETANCHE
10,49.109866,6.208869,BELLETANCHE
874,49.172243,6.152899,BELLEVUE
6070,49.133318,6.168920,GEORGES<br>BERNANOS
6075,49.133318,6.168920,GEORGES<br>BERNANOS
892,49.155741,6.157121,BERLANGE
893,49.156149,6.157198,BERLANGE
166,49.132944,6.167915,GEORGES<br>BERNANOS
192,49.132970,6.167800,GEORGES<br>BERNANOS
472,49.113890,6.212200,BERNARD
462,49.114590,6.211458,BERNARD
389,49.122856,6.193868,BERNE
367,49.122961,6.194159,BERNE
12,49.164420,6.033929,PAUL<br>BILAINE
496,49.125919,6.196648,BILLOTTE
479,49.125580,6.197468,BILLOTTE
6230,49.115617,6.225858,HAUTS<br>DE<br>BLEMONT
6235,49.115617,6.225857,HAUTS<br>DE<br>BLEMONT
5021,49.066498,6.164469,BLEUETS
612,49.125886,6.181395,BLIDA
594,49.125745,6.181341,BLIDA
537,49.087248,6.166820,BLORY
353,49.087360,6.167410,BLORY
455,49.142824,6.168608,BOILEAU
444,49.142960,6.169393,BOILEAU
140,49.103244,6.174837,BOILVIN
127,49.103434,6.174773,BOILVIN
111,49.107062,6.168939,BON<br>SECOURS
92,49.107180,6.168711,BON<br>SECOURS
6220,49.114383,6.220983,LES<br>BORDES
6225,49.114383,6.220983,LES<br>BORDES
21,49.114289,6.222095,LES<br>BORDES
13,49.114256,6.222136,LES<br>BORDES
65,49.103530,6.161950,BOTANIQUE
38,49.103745,6.162015,BOTANIQUE
253,49.092605,6.181247,BOUCHOTTE
238,49.092494,6.181268,BOUCHOTTE
994,49.114270,6.227250,BOURGOGNE
993,49.114206,6.226991,BOURGOGNE
17,49.137809,6.217147,BOUZONVILLE
18,49.137757,6.217148,BOUZONVILLE
5016,49.057216,6.167581,BRAZZA
784,49.160455,6.225830,BREUIL
783,49.160373,6.225746,BREUIL
6300,49.108553,6.220678,HENRI<br>BERGSON
6305,49.108553,6.220678,HENRI<br>BERGSON
882,49.159982,6.104300,BRIEY
881,49.159996,6.104423,BRIEY
330,49.129720,6.133051,BRION
321,49.129800,6.134161,BRION
215,49.115957,6.150888,BEAU<br>RIVAGE
206,49.115925,6.150958,BEAU<br>RIVAGE
410,49.135377,6.149340,BUCHOZ
399,49.135269,6.149745,BUCHOZ
331,49.127914,6.194890,JEAN<br>BURGER
423,49.133180,6.147326,LA<br>BUTTE
415,49.132846,6.147001,LA<br>BUTTE
406,49.134823,6.137339,CAILLOUX
403,49.134414,6.136247,CAILLOUX
5022,49.065974,6.159642,CAMELIAS
839,49.093697,6.086800,CARCAN
838,49.093788,6.086953,CARCAN
726,49.144461,6.127705,CARREFOUR
729,49.144416,6.127746,CARREFOUR
606,49.130021,6.209006,CARRIERES
5042,49.129943,6.209638,CARRIERES
6060,49.135897,6.165947,RENE<br>CASSIN
6065,49.135429,6.166355,RENE<br>CASSIN
26,49.125038,6.180377,CASERNE
214,49.116462,6.141333,CASINO
207,49.116590,6.141350,CASINO
332,49.128455,6.145880,CASTORS
319,49.128528,6.145790,CASTORS
5081,49.033846,6.158180,CEDRE<br>BLEU
5082,49.033781,6.158202,CEDRE<br>BLEU
609,49.127402,6.211912,CEDRES
597,49.127435,6.211657,CEDRES
626,49.155053,6.185996,CENTRALE
618,49.154657,6.186342,CENTRALE
6030,49.148334,6.166976,DOCTEUR<br>CHARCOT
6035,49.148333,6.166976,DOCTEUR<br>CHARCOT
660,49.117684,6.084856,CHAHURY
313,49.118360,6.084331,CHAHURY
209,49.128012,6.185589,CHAMBIERE
208,49.127445,6.184454,CHAMBIERE
5071,49.041489,6.160633,CHAMPAGNE
5073,49.041291,6.160845,CHAMPAGNE
809,49.172679,6.045553,CHAMP<br>BANAL
791,49.144089,6.010451,CHANTRENNE
723,49.141719,6.115710,CHAPELLE
732,49.141710,6.115170,CHAPELLE
855,49.152114,6.161439,CHAPITRE
741,49.152099,6.161795,CHAPITRE
529,49.107270,6.220800,CHAPPE
567,49.107078,6.222231,CHAPPE
573,49.106646,6.221859,CHAPPE
452,49.144521,6.171863,DE<br>CHARDIN
449,49.144072,6.172134,DE<br>CHARDIN
318,49.124869,6.078875,CHATEL-ST-GERMAIN
316,49.124708,6.079168,CHATEL-ST-GERMAIN
3003,49.103365,6.148971,CHATRIAN
3014,49.103241,6.148767,CHATRIAN
749,49.133547,6.276049,LES<br>CHAULMES
756,49.133763,6.275898,LES<br>CHAULMES
5068,49.032045,6.150858,LE<br>CHAVEAU
5076,49.032098,6.150974,LE<br>CHAVEAU
657,49.117186,6.087779,CHEMIN<br>DES<br>DAMES
661,49.116909,6.088335,CHEMIN<br>DES<br>DAMES
813,49.108874,6.120753,CHENEAU
812,49.108911,6.120849,CHENEAU
624,49.165758,6.189607,CHENEVIERES
620,49.165848,6.189651,CHENEVIERES
849,49.114183,6.097958,CHEMIN<br>NOIR
848,49.114174,6.098110,CHEMIN<br>NOIR
985,49.053926,6.241586,CHESNY
991,49.054562,6.242312,CHESNY<br>MAIRIE
975,49.054246,6.241639,CHESNY
776,49.054793,6.187605,CHEVRE<br>HAIE
777,49.054793,6.187367,CHEVRE<br>HAIE
962,49.092723,6.274342,CHEVROTTES
961,49.092687,6.274646,CHEVROTTES
747,49.159388,6.228902,CHIEULLES
746,49.159482,6.228822,CHIEULLES
124,49.148670,6.142922,LES<br>CHILOUX
125,49.148845,6.143083,LES<br>CHILOUX
649,49.122211,6.081531,CHATEL<br>MAIRIE
110,49.105162,6.166510,CHARLES<br>PETRE
93,49.105362,6.166723,CHARLES<br>PETRE
6190,49.109880,6.203370,CIMETIERE<br>DE<br>L'EST
6195,49.109380,6.204139,CIMETIERE<br>DE<br>L'EST
5048,49.137145,6.205757,CIMETIERE
5038,49.137238,6.205973,CIMETIERE
79,49.090910,6.129128,CITE<br>SNCF
73,49.090555,6.127341,CITE<br>SNCF
186,49.101696,6.199568,CLAUDEL
189,49.101675,6.198796,CLAUDEL
827,49.080950,6.084650,CLEMENCEAU
821,49.080190,6.083839,CLEMENCEAU
1021,49.117634,6.174177,RUE<br>DES<br>CLERCS
314,49.122054,6.080144,CLERY
659,49.121180,6.080617,CLERY
405,49.133306,6.133817,CLETTE
404,49.133149,6.133578,CLETTE
932,49.089306,6.149641,CLEMENT<br>ADER
925,49.089360,6.149513,CLEMENT<br>ADER
6240,49.114068,6.230111,CLOUTIERS
6245,49.114069,6.230111,CLOUTIERS
552,49.114657,6.228721,CLOUTIERS
549,49.114841,6.229425,CLOUTIERS
1022,49.114505,6.176820,COETLOSQUET
1023,49.114410,6.176863,COETLOSQUET
5069,49.033599,6.155319,COIN-LES-CUVRY
5075,49.033533,6.155111,COIN-LES-CUVRY
5067,49.009062,6.159809,COIN-SUR-SEILLE
6250,49.110852,6.230559,COLOMBEY
6255,49.110852,6.230559,COLOMBEY
413,49.130282,6.158433,COLIBRI
396,49.130103,6.158698,COLIBRI
553,49.124066,6.152114,COLLEGE<br>JEAN<br>BAUCHEZ
347,49.104216,6.187226,COLLIGNON
337,49.104450,6.187221,COLLIGNON
781,49.048271,6.185544,COLOMBIER
103,49.090403,6.166435,COLSON
100,49.089855,6.166131,COLSON
129,49.120684,6.181183,CONSERVATOIRE
87,49.092004,6.125538,CONSTANTINE
83,49.092329,6.125090,CONSTANTINE
964,49.067530,6.256580,CORBON
906,49.067522,6.256128,CORBON
492,49.123104,6.215393,CORCHADE
483,49.123113,6.215394,CORCHADE
5035,49.083529,6.148852,COSTES<br>ET<br>BELLONTE
5001,49.084244,6.149394,COSTES<br>ET<br>BELLONTE
688,49.154783,6.148493,COTEAUX
687,49.154923,6.148907,COTEAUX
8323,49.097925,6.189406,COTEAUX<br>DE<br>LA<br>SEILLE
8324,49.097811,6.189652,COTEAUX<br>DE<br>LA<br>SEILLE
691,49.091847,6.144800,COUBERTIN
506,49.092130,6.144821,COUBERTIN
159,49.141383,6.148190,COUPILLON
630,49.141640,6.148119,COUPILLON
20,49.121007,6.177989,COUR<br>D'OR
3004,49.103300,6.153439,COUVENTS
3013,49.103599,6.152313,COUVENTS
831,49.114362,6.112973,CRIMEE
830,49.113563,6.113576,CRIMEE
326,49.132311,6.125594,CROIX<br>D'OREE
829,49.093033,6.094850,CROISEMENT<br>RD6
819,49.093843,6.095458,CROISEMENT<br>RD6
6270,49.120318,6.159563,CITE<br>U
6275,49.119988,6.159676,CITE<br>U
315,49.085499,6.163466,CUGNOT
570,49.092441,6.242709,CUVION
569,49.092437,6.242739,CUVION
5000,49.042924,6.158807,CUVRY
5072,49.042924,6.158807,CUVRY
891,49.162702,6.160188,D953
894,49.162763,6.160208,D953
162,49.136627,6.155927,DAGA
156,49.136455,6.155988,DAGA
559,49.132861,6.165016,DALES
997,49.133230,6.164190,DALES
259,49.106263,6.179429,DEMBOUR
232,49.106523,6.179279,DEMBOUR
180,49.105037,6.194409,DEVILLY
546,49.094073,6.245623,DOLICHE
146,49.094632,6.245910,DOLICHE
810,49.170071,6.047941,DOUANIERS
448,49.109577,6.247579,DRAPIERS
445,49.109489,6.247751,DRAPIERS
346,49.101894,6.188220,DUCROCQ
338,49.101336,6.188396,DUCROCQ
495,49.123674,6.203367,DUNANT
480,49.123912,6.202341,DUNANT
178,49.109431,6.189069,DUPLOYE
474,49.113730,6.202620,DURUTTE
460,49.113710,6.202610,DURUTTE
6340,49.093373,6.230112,GRANDES<br>ECOLES
6345,49.093373,6.230111,GRANDES<br>ECOLES
5026,49.058991,6.156305,LES<br>ECOLES
5011,49.058850,6.156548,LES<br>ECOLES
138,49.099076,6.173745,EGLISE
236,49.098724,6.173378,EGLISE
5054,49.131655,6.205405,ERABLES
5040,49.131326,6.205180,ERABLES
789,49.118285,6.096176,ERMITAGE
786,49.118339,6.096493,ERMITAGE
64,49.101840,6.158270,EUROPA<br>COURCELLES
39,49.102140,6.158850,EUROPA<br>COURCELLES
6350,49.091479,6.231423,P+R<br>FOIRE<br>EXPO
6355,49.091478,6.231423,P+R<br>FOIRE<br>EXPO
752,49.132878,6.252840,FALEE
753,49.133140,6.253600,FALEE
430,49.098031,6.240201,FALOGNE
428,49.098061,6.240259,FALOGNE
250,49.085410,6.182650,FAUBOURG
251,49.085047,6.182645,FAUBOURG
431,49.100494,6.243039,FAURNEL
427,49.099855,6.242892,FAURNEL
425,49.115093,6.240704,FEIVRES
426,49.114811,6.240075,FEIVRES
320,49.129290,6.137230,FELIX<br>MARECHAL
376,49.129169,6.137807,FELIX<br>MARECHAL
420,49.129490,6.138200,FELIX<br>MARECHAL
845,49.029107,6.096660,FEY<br>VILLAGE
841,49.029064,6.096633,FEY<br>VILLAGE
291,49.123970,6.165111,FORT<br>MOSELLE
265,49.124674,6.164548,FORT<br>MOSELLE
515,49.120700,6.148530,FOCH
229,49.120940,6.148440,FOCH
6020,49.149369,6.172123,DEUX<br>FONTAINES
6025,49.149369,6.172123,DEUX<br>FONTAINES
564,49.129600,6.235049,FONNY
562,49.129560,6.234880,FONNY
686,49.100456,6.145343,FOSSE
685,49.100239,6.145210,FOSSE
381,49.122548,6.218963,FOUGERES
375,49.121796,6.219060,FOUGERES
697,49.122430,6.183338,FOURNIER
696,49.122442,6.183439,FOURNIER
1008,49.118009,6.178726,EN<br>FOURNIRUE
622,49.171176,6.189698,FRANCLONCHAMPS
252,49.090622,6.181629,FRECOT
239,49.091320,6.181540,FRECOT
605,49.131715,6.211300,FRENES
5043,49.132258,6.211787,FRENES
349,49.108489,6.187704,FRIANT
335,49.108292,6.187799,FRIANT
58,49.099956,6.141987,LES<br>FRICHES
45,49.100092,6.141906,LES<br>FRICHES
727,49.140225,6.135597,FRIERES
728,49.140389,6.135206,FRIERES
971,49.058520,6.264080,FRONTIGNY
989,49.058560,6.263770,FRONTIGNY
459,49.149412,6.159712,GAMBETTA
475,49.149042,6.159950,GAMBETTA
473,49.115663,6.203952,GANNE
461,49.115691,6.205455,GANNE
6140,49.110368,6.177609,GARE
6145,49.110368,6.177612,GARE
113,49.110333,6.175233,GARE
30,49.111060,6.177060,GARE
4,49.110660,6.176990,GARE
90,49.110090,6.176000,GARE
712,49.070241,6.137608,GARE<br>D'AUGNY
701,49.070173,6.137548,GARE<br>D'AUGNY
5033,49.076504,6.146581,GARENNES
5003,49.076504,6.146581,GARENNES
860,49.148622,6.155402,GARE<br>DE<br>WOIPPY
857,49.148684,6.155414,GARE<br>DE<br>WOIPPY
966,49.075660,6.226840,GARGAN
982,49.075720,6.226751,GARGAN
575,49.093513,6.229834,GRANDES<br>ECOLES
854,49.093679,6.230222,GRANDES<br>ECOLES
808,49.182847,6.040271,GRANDE<br>FLAMEE
344,49.098141,6.194560,GRANDMAISON
340,49.098026,6.194235,GRANDMAISON
194,49.104692,6.199506,GENDARMERIE
182,49.104620,6.199807,GENDARMERIE
342,49.099973,6.205506,GENERAL<br>FRERE
566,49.100258,6.206111,GENERAL<br>FRERE
66,49.105495,6.163655,GENIE
37,49.105230,6.163460,GENIE
382,49.122093,6.216607,GENIVAUX
374,49.122094,6.216592,GENIVAUX
343,49.097516,6.199615,GIRAUDOUX
341,49.097190,6.200550,GIRAUDOUX
846,49.055839,6.119819,GLISSU
840,49.055862,6.119844,GLISSU
187,49.101521,6.194532,GOUSSEL
188,49.101557,6.195569,GOUSSEL
6310,49.105102,6.223345,GRAHAM<br>BELL
6315,49.105102,6.223345,GRAHAM<br>BELL
795,49.109121,6.030342,GRAVELOTTE<br>EGLISE
793,49.109137,6.030328,GRAVELOTTE<br>EGLISE
963,49.080800,6.110390,GRAVIERES
627,49.146123,6.190577,GRANGE-AUX-DAMES
617,49.146467,6.190832,GRANGE-AUX-DAMES
721,49.168624,6.048391,AMANVILLERS<br>GRAND<br>RUE
734,49.168641,6.048531,AMANVILLERS<br>GRAND<br>RUE
354,49.118410,6.218702,GRELLOIS
356,49.118381,6.218578,GRELLOIS
895,49.095068,6.220689,GRIGY
898,49.095073,6.220749,GRIGY
5057,49.140488,6.217544,GRIMONT
5034,49.080851,6.146461,GRANGE<br>AUX<br>ORMES
5002,49.080670,6.146240,GRANGE<br>AUX<br>ORMES
153,49.133828,6.280047,GROS<br>NOYERS
6290,49.111443,6.218923,GUYENNE
6295,49.111443,6.218923,GUYENNE
210,49.110841,6.097291,HAIE<br>BRULEE
278,49.111049,6.096904,HAIE<br>BRULEE
807,49.186009,6.037485,HAMEAU<br>JERUSALEM
942,49.186111,6.038332,HAMEAU<br>JERUSALEM
801,49.185555,6.040000,HAMEAU<br>JERUSALEM
5015,49.067217,6.169898,HAUTS<br>DE<br>BOUTAN
348,49.105859,6.187393,HERMITE
336,49.105763,6.187373,HERMITE
286,49.100964,6.191641,HESTAUX
287,49.100936,6.191504,HESTAUX
5055,49.131963,6.209181,HETRES
5041,49.132344,6.208729,HETRES
902,49.085830,6.243860,HOPITAL<br>MERCY
900,49.085840,6.243710,HOPITAL<br>MERCY
511,49.092979,6.172841,LA<br>HORGNE
134,49.093283,6.172531,LA<br>HORGNE
5027,49.060077,6.154155,HOTEL<br>DE<br>VILLE
5010,49.060039,6.154227,HOTEL<br>DE<br>VILLE
903,49.123286,6.242129,HOPITAL<br>SCHUMAN
904,49.123709,6.242434,HOPITAL<br>SCHUMAN
5053,49.135105,6.213814,HAUT<br>SORET
5046,49.135420,6.213610,HAUT<br>SORET
311,49.074131,6.190759,HAUTS-DE-MAGNY
585,49.074087,6.190827,HAUTS-DE-MAGNY
56,49.099066,6.132326,HAUT-RHELE
47,49.099083,6.132364,HAUT-RHELE
317,49.132800,6.135280,HAUT<br>DE<br>WOICON
641,49.151735,6.189134,IKEA
642,49.151769,6.188096,IKEA
456,49.140476,6.165982,INTENDANTS<br>JOBA
443,49.141590,6.165230,INTENDANTS<br>JOBA
378,49.123956,6.225906,JACINTHES
437,49.123890,6.226270,JACINTHES
5106,49.089281,6.153389,JEANNE<br>D'ARC
5524,49.089642,6.153691,JEANNE<br>D'ARC
532,49.091728,6.167170,JERUSALEM
531,49.091910,6.167250,JERUSALEM
867,49.077520,6.080706,JEAN<br>FERRAT
866,49.078385,6.081764,JEAN<br>FERRAT
648,49.153155,6.139950,JEAN<br>LAURAIN
647,49.153314,6.139920,JEAN<br>LAURAIN
467,49.107634,6.227988,JULES<br>MICHELET
521,49.107319,6.228185,JULES<br>MICHELET
6050,49.141569,6.165333,INTENDANTS<br>JOBA
6055,49.141186,6.165521,INTENDANTS<br>JOBA
5025,49.058975,6.158887,CROIX<br>ST<br>JOSEPH
5012,49.058990,6.159201,CROIX<br>ST<br>JOSEPH
494,49.123025,6.206269,JOUSSE
481,49.122933,6.206892,JOUSSE
491,49.125797,6.217510,J.P.<br>JEAN
484,49.125759,6.217174,J.P.<br>JEAN
493,49.122481,6.212212,JUGAN
482,49.122370,6.213373,JUGAN
392,49.118136,6.189842,JUIN
364,49.118409,6.189948,JUIN
859,49.148516,6.152681,JUNGLING
858,49.148392,6.152380,JUNGLING
386,49.118481,6.200633,JURA
370,49.118479,6.200509,JURA
979,49.069560,6.253290,JURY
969,49.069640,6.253580,JURY
231,49.105080,6.089318,JUSSY<br>-<br>STE-RUFFINE
719,49.166549,6.038358,JUSTICE
28,49.112745,6.185069,LACRETELLE
6,49.113428,6.185961,LACRETELLE
329,49.129037,6.130390,LA<br>CROIX
544,49.098943,6.243364,LA<br>DAME
541,49.098572,6.243959,LA<br>DAME
442,49.154328,6.153073,LADONCHAMPS
441,49.154064,6.152506,LADONCHAMPS
112,49.107800,6.172740,LAFAYETTE
91,49.108030,6.172980,LAFAYETTE
623,49.168601,6.189448,LA<br>MAXE
621,49.168728,6.189421,LA<br>MAXE
972,49.053990,6.275650,LANCEUMONT
988,49.054228,6.275283,LANCEUMONT
905,49.054191,6.274581,LANCEUMONT
794,49.078280,6.315940,LAQUENEXY
817,49.078440,6.315411,LAQUENEXY
220,49.123808,6.149309,LARDEMELLE
557,49.124130,6.149947,LARDEMELLE
5030,49.062854,6.146246,LARGANTIER
5006,49.062189,6.146438,LARGANTIER
736,49.116189,6.097919,LASSAUX
718,49.116286,6.097992,LASSAUX
951,49.124040,6.260030,LAUVALLIERES
959,49.148355,6.124134,LAVANDIERES
960,49.148355,6.124134,LAVANDIERES
137,49.097385,6.174626,LAVOIR
243,49.096835,6.175178,LAVOIR
211,49.111108,6.130608,LECLERC
272,49.110796,6.129704,LECLERC
6170,49.111705,6.192059,HOPITAL<br>LEGOUEST
6175,49.111845,6.192939,HOPITAL<br>LEGOUEST
545,49.096410,6.238379,LE<br>LAC
412,49.131490,6.156323,LE<br>MOYNE
397,49.131289,6.156678,LE<br>MOYNE
2580,49.104134,6.179665,LEMUD
2330,49.104250,6.179548,LEMUD
635,49.156248,6.140034,LE<br>PATIS
5032,49.073839,6.147819,LES<br>CLOS
5004,49.072923,6.148046,LES<br>CLOS
788,49.120911,6.094850,LESSY
716,49.120919,6.094679,LESSY
703,49.061254,6.118142,LIBERATION
710,49.061254,6.117849,LIBERATION
282,49.107419,6.116081,LIBERTE
274,49.107597,6.116957,LIBERTE
3007,49.095588,6.143667,LILAS
3000,49.095687,6.143521,LILAS
61,49.099976,6.152631,LITALDUS-HOTEL<br>DE<br>VILLE
42,49.099441,6.151063,LITALDUS-HOTEL<br>DE<br>VILLE
434,49.129950,6.237470,LES<br>MOULINS
433,49.130000,6.237770,LES<br>MOULINS
516,49.098781,6.159231,LOGES
510,49.099049,6.158200,LOGES
212,49.112409,6.134323,LONGEVILLE
271,49.112725,6.135222,LONGEVILLE
379,49.122467,6.224792,LORIENT
377,49.122632,6.225374,LORIENT
84,49.102709,6.109166,LORRAINE
818,49.101199,6.108043,LORRAINE
724,49.141782,6.118452,LORRY<br>GRAND<br>RUE
731,49.141784,6.118315,LORRY<br>GRAND<br>RUE
256,49.099271,6.180423,LOTHAIRE
235,49.099576,6.180356,LOTHAIRE
692,49.100328,6.180862,LOTHAIRE
693,49.100333,6.181056,LOTHAIRE
78,49.089203,6.123365,LOTISSEMENT<br>INDUSTRIEL
74,49.089741,6.124332,LOTISSEMENT<br>INDUSTRIEL
704,49.064045,6.116576,LOTISSEMENT
709,49.063500,6.116390,LOTISSEMENT
850,49.085306,6.148632,LUETTE
851,49.085376,6.148345,LUETTE
6110,49.121245,6.168918,SQUARE<br>DU<br>LUXEMBOURG
6115,49.121246,6.168921,SQUARE<br>DU<br>LUXEMBOURG
104,49.093500,6.167980,LYAUTEY
656,49.093940,6.168179,LYAUTEY
99,49.093910,6.167520,LYAUTEY
773,49.103290,6.177680,LYCEE<br>FOURNIER
775,49.103270,6.177670,LYCEE<br>FOURNIER
9,49.073842,6.186419,MAGNY<br>PAUL<br>VERLAINE
246,49.075206,6.194991,MAGNY-AU-BOIS
581,49.075410,6.195379,MAGNY-AU-BOIS
779,49.050101,6.184511,MAHIRE
772,49.124955,6.017008,MALMAISON
768,49.125027,6.016890,MALMAISON
489,49.127813,6.225469,MY<br>MANGENOT
486,49.127912,6.225781,MY<br>MANGENOT
109,49.102880,6.164599,MANGIN
94,49.102570,6.164369,MANGIN
63,49.100588,6.217791,MARCONI
40,49.100592,6.217981,MARCONI
927,49.089355,6.159382,MARC<br>SANGNIER
930,49.089247,6.159298,MARC<br>SANGNIER
547,49.088292,6.159708,MARGUERITE
540,49.088491,6.159318,MARGUERITE
843,48.998825,6.100303,MARIEULLES
5019,49.061007,6.166711,MARLY
7,49.061007,6.166711,MARLY
304,49.126698,6.154243,MARNE
222,49.126760,6.154310,MARNE
603,49.134239,6.215401,MARRONNIERS
5045,49.134319,6.215283,MARRONNIERS
935,49.203537,6.046659,MASARIEULLES
936,49.203421,6.046497,MASARIEULLES
748,49.130196,6.275761,MAS<br>AU<br>LIEVRE
861,49.130289,6.275718,MAS<br>AU<br>LIEVRE
6370,49.082090,6.238732,MATERNITE
6375,49.082161,6.239011,MATERNITE
383,49.120179,6.214947,MAUJEAN
373,49.120197,6.214533,MAUJEAN
888,49.114125,6.182420,MAZELLE
198,49.114951,6.184847,MAZELLE
974,49.042400,6.268120,MECLEUVES
986,49.042250,6.268461,MECLEUVES
607,49.128165,6.203304,MELEZES
599,49.127850,6.203633,MELEZES
6360,49.084587,6.242098,HOPITAL<br>MERCY
6365,49.084587,6.242099,HOPITAL<br>MERCY
360,49.093544,6.151580,MERMOZ
355,49.093986,6.152085,MERMOZ
384,49.120046,6.208878,METMAN
372,49.120111,6.209556,METMAN
682,49.107053,6.231395,METZANINE
681,49.106729,6.231413,METZANINE
3005,49.101675,6.155199,MEURISSE
3012,49.102196,6.156036,MEURISSE
563,49.133960,6.237639,MEY<br>LES<br>VIGNES
6260,49.107653,6.228691,JULES<br>MICHELET
6265,49.107653,6.228691,JULES<br>MICHELET
5017,49.059365,6.169093,MICHEL<br>ANGE
213,49.114136,6.139048,MIGETTE
270,49.113966,6.138610,MIGETTE
941,49.198097,6.034813,MINE
940,49.198009,6.034932,MINE
422,49.131199,6.145880,MIRABELLES
416,49.130667,6.145525,MIRABELLES
380,49.110280,6.091201,MAISON<br>NEUVE
868,49.110280,6.091201,MAISON<br>NEUVE
328,49.129188,6.127607,MOMENE
667,49.112139,6.095168,MOULIN<br>NEUF
312,49.112319,6.095103,MOULIN<br>NEUF
804,49.184845,6.044487,ST-PRIVAT-LA-MONTAGNE
833,49.158622,6.106141,ST-PRIVAT-LA-MONTAGNE
160,49.141124,6.150791,MORLOT
158,49.141084,6.150367,MORLOT
275,49.106477,6.111286,MOULINS
281,49.106440,6.111200,MOULINS
86,49.105475,6.110561,MOULINS
85,49.106994,6.106338,MOULINS<br>MAIRIE
998,49.119814,6.171282,MOYEN<br>PONT
503,49.084587,6.154709,MONTIGNY<br>ST-PRIVAT
62,49.101364,6.154804,NATION
41,49.101308,6.154675,NATION
411,49.133680,6.152525,NICOLAS<br>JUNG
398,49.133334,6.153096,NICOLAS<br>JUNG
551,49.114700,6.235634,NONNETIERS
550,49.114745,6.237012,NONNETIERS
790,49.111846,6.097380,NOUILLONS
785,49.112055,6.097330,NOUILLONS
751,49.136056,6.258509,NOUILLY<br>CENTRE
245,49.076040,6.192849,OBELLIANE
582,49.076140,6.192630,OBELLIANE
183,49.103385,6.202415,OBERLING
193,49.103229,6.202711,OBERLING
653,49.103150,6.204709,OBERLING
668,49.103156,6.204046,OBERLING
458,49.125193,6.230550,OEILLETS
147,49.120069,6.176481,OFFICE<br>DE<br>TOURISME
871,49.075620,6.116550,ORLY
872,49.075870,6.116931,ORLY
218,49.111121,6.161525,PALAIS<br><br>DES<br>SPORTS
203,49.111233,6.161236,PALAIS<br><br>DES<br>SPORTS
120,49.094400,6.123851,PAQUERETTES
119,49.094430,6.123770,PAQUERETTES
163,49.135059,6.156782,PAQUET
155,49.135083,6.156760,PAQUET
393,49.117232,6.179856,PARAIGES
995,49.075067,6.256375,LA<br>PASSERELLE
996,49.074881,6.256506,LA<br>PASSERELLE
227,49.093074,6.239673,PASSOTTE
226,49.092848,6.239898,PASSOTTE
164,49.134585,6.161235,PATROTTE
154,49.134796,6.161172,PATROTTE
965,49.074330,6.222700,PELTRE<br>GARE
983,49.074380,6.222640,PELTRE<br>GARE
910,49.107110,6.177470,POLE<br>MULTIMODAL
911,49.107070,6.177387,POLE<br>MULTIMODAL
912,49.107130,6.177520,POLE<br>MULTIMODAL
913,49.106940,6.177100,POLE<br>MULTIMODAL
914,49.107070,6.177387,POLE<br>MULTIMODAL
916,49.107110,6.177470,POLE<br>MULTIMODAL
836,49.134659,6.273620,PENSEES
835,49.134718,6.273891,PENSEES
216,49.114076,6.154931,PEPINIERES
205,49.114283,6.154505,PEPINIERES
967,49.076700,6.232070,PEUMONT
981,49.076810,6.232140,PEUMONT
508,49.104668,6.208690,PEUPLIERS
500,49.105085,6.210269,PEUPLIERS
257,49.102273,6.179863,PIERNE
234,49.102558,6.179825,PIERNE
625,49.164089,6.188698,PIERRET
619,49.163588,6.188512,PIERRET
750,49.134469,6.270569,PINOTS<br>MELES
755,49.134438,6.271576,PINOTS<br>MELES
604,49.132392,6.215935,PINS
5044,49.132405,6.215813,PINS
241,49.100580,6.186501,PISCINE<br>OLYMPIQUE
240,49.100489,6.185619,PISCINE<br>OLYMPIQUE
174,49.125861,6.227397,PIVOINES
646,49.063946,6.148353,PAUL<br>JOLY
645,49.063956,6.148349,PAUL<br>JOLY
739,49.154572,6.118160,PLACE<br>PUBLIQUE
744,49.154617,6.118041,PLACE<br>PUBLIQUE
248,49.078720,6.189810,LA<br>PLAINE
579,49.078680,6.189760,LA<br>PLAINE
327,49.130529,6.124464,PLAPPEVILLE
722,49.169047,6.051426,LES<br>PLAQUETTES
733,49.169204,6.051248,LES<br>PLAQUETTES
145,49.119478,6.175437,PLACE<br>D'ARMES
1004,49.119340,6.175570,PLACE<br>D'ARMES
260,49.082390,6.184219,PLATEAU
261,49.081550,6.185229,PLATEAU
1020,49.120317,6.173846,PLACE<br>DE<br>CHAMBRE
19,49.120314,6.173985,PLACE<br>DE<br>CHAMBRE
457,49.156261,6.153043,PLACE<br>DE<br>FRANCE
5024,49.060938,6.162506,PLACE<br>DE<br>GAULLE
5013,49.060080,6.162630,PLACE<br>DE<br>GAULLE
879,49.116424,6.168559,POINCARE
880,49.117649,6.169115,POINCARE
6150,49.109098,6.180880,CENTRE<br>POMPIDOU<br>METZ
6155,49.109098,6.180879,CENTRE<br>POMPIDOU<br>METZ
5070,49.033478,6.162407,LA<br>POMMERAIE
5074,49.033591,6.161991,LA<br>POMMERAIE
27,49.123721,6.175377,PONT<br>MOREAU
797,49.108401,6.180385,CENTRE<br>POMPIDOU<br>METZ
796,49.108318,6.180437,CENTRE<br>POMPIDOU<br>METZ
6090,49.127140,6.174876,PONTIFFROY
6095,49.127138,6.174877,PONTIFFROY
526,49.089591,6.147259,PONSARD
358,49.089631,6.147179,PONSARD
169,49.127360,6.175441,PONTIFFROY
149,49.127471,6.175816,PONTIFFROY
664,49.114821,6.189005,PONT<br>ROUGE
665,49.114710,6.188867,PONT<br>ROUGE
288,49.119032,6.144237,PONT<br>DE<br>VERDUN
268,49.119567,6.144533,PONT<br>DE<br>VERDUN
629,49.137311,6.180807,PORT<br>DE<br>METZ
615,49.137572,6.181031,PORT<br>DE<br>METZ
815,49.151940,6.213803,POSTE<br>EDF
816,49.151940,6.213803,POSTE<br>EDF
674,49.115719,6.243662,POTIERS<br>D'ETAIN
432,49.116148,6.243641,POTIERS<br>D'ETAIN
782,49.049818,6.188396,POUILLY
856,49.151113,6.165887,POULMAIRE
740,49.151153,6.166943,POULMAIRE
5078,49.020422,6.155370,POURNOY-LA-CHETIVE
5077,49.020792,6.155158,POURNOY-LA-CHETIVE
1000,49.121710,6.174370,PREFECTURE
438,49.121305,6.175270,PREFECTURE
435,49.121590,6.174796,PREFECTURE
418,49.081200,6.308091,PRE<br>NET
419,49.081120,6.308259,PRE<br>NET
324,49.134312,6.130838,PRES<br>ST-JACQUES
834,49.135232,6.257092,PRESSOIR
292,49.102307,6.104872,PREVILLE
295,49.102224,6.104457,PREVILLE
5361,49.092873,6.156398,PREVOTE
5354,49.091612,6.155352,PREVOTE
762,49.107937,6.085251,PRIEURE
263,49.109541,6.125934,EN<br>PRILLE
262,49.109378,6.125309,EN<br>PRILLE
6210,49.113262,6.216811,PROVENCE
6215,49.113265,6.216819,PROVENCE
23,49.112835,6.215728,PROVENCE
11,49.112796,6.215883,PROVENCE
832,49.166107,6.040384,PETIT<br>COEUR
589,49.076551,6.184011,PETIT<br>CLOU
306,49.074774,6.184282,PETIT<br>CLOU
978,49.067090,6.245551,PETIT<br>JURY
970,49.066950,6.245420,PETIT<br>JURY
385,49.119000,6.204281,PETITES<br>SOEURS
371,49.119007,6.204234,PETITES<br>SOEURS
2385,49.118360,6.203830,PETITES<br>SOEURS
2378,49.118451,6.203901,PETITES<br>SOEURS
196,49.107034,6.194725,PUYMAIGRE
787,49.123278,6.094879,LE<br>QUOITY
391,49.120040,6.190601,RAPHAEL<br>LEVY
365,49.120317,6.190744,RAPHAEL<br>LEVY
923,49.200869,6.037802,RAYMOND<br>MONDON
924,49.200897,6.038033,RAYMOND<br>MONDON
863,49.126685,6.268260,ROUTE<br>DE<br>BOULAY
862,49.126497,6.267760,ROUTE<br>DE<br>BOULAY
32,49.031333,6.097731,RD66
33,49.031286,6.096974,RD66
6120,49.114995,6.173385,REPUBLIQUE
6125,49.115833,6.172877,REPUBLIQUE
5051,49.114485,6.172077,REPUBLIQUE
5052,49.114320,6.172450,REPUBLIQUE
123,49.115614,6.173439,REPUBLIQUE
173,49.114947,6.173441,REPUBLIQUE
436,49.114500,6.172990,REPUBLIQUE
1,49.115245,6.173645,REPUBLIQUE
88,49.115436,6.174237,REPUBLIQUE
170,49.124096,6.181054,RIMPORT
440,49.124458,6.182114,RIMPORT
6080,49.129663,6.170075,P+R<br>ROCHAMBEAU
6085,49.129561,6.170356,P+R<br>ROCHAMBEAU
168,49.129429,6.170241,P+R<br>ROCHAMBEAU
150,49.129526,6.170049,P+R<br>ROCHAMBEAU
514,49.097990,6.202697,ROEDERER
513,49.098707,6.203577,ROEDERER
477,49.149171,6.169056,ROGET
498,49.149287,6.169623,ROGET
6130,49.110651,6.171616,ROI<br>GEORGE
6135,49.110752,6.171479,ROI<br>GEORGE
142,49.111048,6.172034,ROI<br>GEORGE
352,49.109801,6.170433,ROI<br>GEORGE
694,49.110789,6.171108,ROI<br>GEORGE
695,49.110789,6.171108,ROI<br>GEORGE
34,49.110369,6.169100,ROI<br>GEORGE
68,49.109940,6.170550,ROI<br>GEORGE
89,49.110965,6.171984,ROI<br>GEORGE
939,49.204139,6.051606,RONCOURT
933,49.202631,6.041235,RONCOURT<br>CENTRE
934,49.201994,6.041096,RONCOURT<br>CENTRE
921,49.199366,6.035935,RONCOURT<br>EGLISE
922,49.199492,6.036390,RONCOURT<br>EGLISE
247,49.077240,6.193779,ROOSEVELT
580,49.077030,6.194050,ROOSEVELT
587,49.071276,6.185710,ROSEAUX
308,49.071263,6.186714,ROSEAUX
672,49.103095,6.243447,ROSE<br>GONTHIER
671,49.103080,6.243479,ROSE<br>GONTHIER
655,49.147417,6.148651,ROSE<br>MARCUS
654,49.147379,6.148470,ROSE<br>MARCUS
394,49.097967,6.075020,IME<br>LA<br>ROSERAIE
77,49.087806,6.118275,ROTONDE
75,49.087253,6.117156,ROTONDE
6040,49.144727,6.166327,EMILE<br>ROUX
6045,49.144727,6.166327,EMILE<br>ROUX
407,49.135555,6.140031,ROUSSEL
402,49.135449,6.139462,ROUSSEL
814,49.110626,6.112126,SCHUMAN
811,49.110858,6.111853,SCHUMAN
662,49.115019,6.192011,ROUTE<br>DE<br>BORNY
663,49.115028,6.192803,ROUTE<br>DE<br>BORNY
639,49.144803,6.147904,RUCHER
631,49.145003,6.147890,RUCHER
774,49.112024,6.028842,RUE<br>D'ARS
778,49.111974,6.028865,RUE<br>D'ARS
805,49.188930,6.038179,RUE<br>DES<br>ECOLES
803,49.189010,6.038159,RUE<br>DES<br>ECOLES
675,49.115068,6.196979,RUELLE<br>CHENEAU
676,49.115101,6.197865,RUELLE<br>CHENEAU
738,49.155754,6.113134,RUE<br>DE<br>METZ
745,49.155763,6.113093,RUE<br>DE<br>METZ
666,49.155819,6.105067,RUE<br>DU<br>MOULIN
742,49.151049,6.158635,RUISSEAU
743,49.151083,6.158612,RUISSEAU
351,49.086445,6.163728,SABLIERES
534,49.086268,6.163136,SABLIERES
760,49.152886,6.246759,SALETTE
409,49.136369,6.147307,SANSONNET
400,49.136475,6.147045,SANSONNET
677,49.114594,6.231023,SARRE
678,49.114650,6.233648,SARRE
6280,49.120733,6.164674,SAULCY
6285,49.120430,6.164552,SAULCY
638,49.147632,6.152458,SAULES
632,49.147642,6.152451,SAULES
490,49.126479,6.221821,SAULNOIS
485,49.126514,6.222033,SAULNOIS
737,49.158620,6.106141,SAULNY<br>CENTRE
766,49.158864,6.105980,SAULNY<br>CENTRE
54,49.096142,6.127414,SAVOIE
49,49.096056,6.127234,SAVOIE
717,49.114110,6.116820,SCY-CHAZELLES
825,49.079280,6.065761,SCHWALBACH
823,49.079330,6.065510,SCHWALBACH
359,49.116339,6.217147,DOCTEUR<br>SCHWEITZER
361,49.116404,6.216995,DOCTEUR<br>SCHWEITZER
283,49.108550,6.121820,SCY<br>BAS
273,49.108430,6.120870,SCY<br>BAS
299,49.107885,6.237844,SEBASTOPOL
542,49.107638,6.238711,SEBASTOPOL
25,49.121248,6.179707,STE-SEGOLENE
6160,49.111741,6.185901,SEILLE
6165,49.111647,6.185626,SEILLE
5,49.111295,6.186127,SEILLE
177,49.111432,6.186076,SEILLE
447,49.114191,6.247357,SELLIERS
446,49.114048,6.247509,SELLIERS
107,49.097949,6.160483,SEMINAIRE
96,49.097280,6.159970,SEMINAIRE
1024,49.117164,6.175487,RUE<br>SERPENOISE
279,49.109991,6.099552,SERRET
277,49.109900,6.099858,SERRET
673,49.118262,6.240132,SERRURIERS
424,49.118611,6.240000,SERRURIERS
574,49.101316,6.208325,SEULHOTTE
572,49.101458,6.208595,SEULHOTTE
228,49.122261,6.149006,ST-SIGISBERT
219,49.122458,6.148739,ST-SIGISBERT
628,49.140359,6.186424,LES<br>SILOS
616,49.140745,6.187161,LES<br>SILOS
357,49.090304,6.144877,SIMMINGER
527,49.090231,6.144980,SIMMINGER
689,49.089885,6.144612,SIMMINGER
690,49.089972,6.144756,SIMMINGER
139,49.100236,6.175472,ST-LIVIER
128,49.101033,6.175172,ST-LIVIER
289,49.121573,6.150804,ST-MARTIN
267,49.121714,6.151256,ST-MARTIN
298,49.108048,6.243106,SOLIDARITE
509,49.107803,6.243051,SOLIDARITE
5031,49.068535,6.146847,LES<br>SORBIERS
5005,49.068926,6.146890,LES<br>SORBIERS
116,49.121211,6.168953,SQUARE<br>DU<br>LUXEMBOURG
118,49.121233,6.168829,SQUARE<br>DU<br>LUXEMBOURG
122,49.121399,6.168131,SQUARE<br>DU<br>LUXEMBOURG
264,49.121440,6.167969,SQUARE<br>DU<br>LUXEMBOURG
325,49.131649,6.130784,STADE
876,49.164269,6.153869,STE-AGATHE
883,49.164145,6.153887,STE-AGATHE
106,49.096050,6.159085,ST-ANDRE
5097,49.095000,6.158130,ST-ANDRE
97,49.095161,6.159006,ST-ANDRE
5029,49.060249,6.150115,ST-BRICE
5007,49.060630,6.149240,ST-BRICE
931,49.086386,6.154441,ST-EXUPERY
926,49.086575,6.154082,ST-EXUPERY
171,49.122696,6.178363,ST-GEORGES
439,49.122449,6.178004,ST-GEORGES
280,49.108046,6.104965,ST-JEAN
276,49.107761,6.105710,ST-JEAN
5049,49.134292,6.202512,ST-JULIEN<br>EGLISE
5037,49.134488,6.202701,ST-JULIEN<br>EGLISE
5066,49.140795,6.205836,ST-JULIEN<br>FORT
601,49.141380,6.206611,ST-JULIEN<br>FORT
518,49.096922,6.154974,ST-LADRE
517,49.097128,6.155211,ST-LADRE
1007,49.116690,6.179530,ST-LOUIS
195,49.105781,6.196741,ST-MAXIMIN
181,49.105726,6.196618,ST-MAXIMIN
31,49.113468,6.178366,ST-NICOLAS
3,49.112979,6.177394,ST-NICOLAS
387,49.120074,6.196174,STOXEY
369,49.119177,6.196322,STOXEY
828,49.083369,6.087056,ST-PAUL
820,49.083150,6.086633,ST-PAUL
59,49.097373,6.144350,ST-QUENTIN
507,49.097040,6.143281,ST-QUENTIN
890,49.173763,6.162021,ST-REMY
590,49.079117,6.184032,ST-ROCH
242,49.078383,6.183834,ST-ROCH
303,49.127707,6.151972,ST-SIMON
223,49.127468,6.152503,ST-SIMON
98,49.094149,6.163161,SUGNON
105,49.094130,6.163420,SUGNON
60,49.098320,6.147441,ST-VICTOR
43,49.097961,6.146272,ST-VICTOR
285,49.104655,6.214243,SYMPHONIE
284,49.104956,6.215043,SYMPHONIE
102,49.104259,6.215028,SYMPHONIE
497,49.126892,6.192310,TANNERIE
478,49.126966,6.193015,TANNERIE
556,49.119381,6.181936,TANNEURS
363,49.120125,6.184069,TANNEURS
973,49.043900,6.270610,LES<br>TARREAUX
987,49.044075,6.270719,LES<br>TARREAUX
792,49.146826,6.003117,TELEGRAPHE
770,49.146826,6.003117,TELEGRAPHE
897,49.078820,6.069921,TEMPLE
896,49.079110,6.069737,TEMPLE
5050,49.129762,6.197286,TERRES<br>ROUGES
5036,49.129964,6.197548,TERRES<br>ROUGES
1012,49.117314,6.177094,TETE<br>D'OR
780,49.050293,6.183417,THERMES
266,49.125883,6.159390,TIGNOMONT
290,49.126208,6.159407,TIGNOMONT
395,49.127619,6.160069,TIGNOMONT
414,49.127533,6.160006,TIGNOMONT
5039,49.134490,6.207790,TILLEULS
5047,49.134044,6.207506,TILLEULS
8321,49.099280,6.188816,TIVOLI
8322,49.099591,6.188689,TIVOLI
333,49.128371,6.148195,TORTUE
224,49.128361,6.148446,TORTUE
82,49.095566,6.138685,TOURAINE
70,49.095125,6.137334,TOURAINE
76,49.085418,6.113457,TOURNEBRIDE
121,49.085970,6.113350,TOURNEBRIDE
197,49.110096,6.189480,TREIZE
548,49.087466,6.164294,VACONS
539,49.087485,6.164532,VACONS
535,49.087626,6.165392,VACONS
538,49.087738,6.165216,VACONS
108,49.100454,6.162568,VAILLANT
95,49.099700,6.161980,VAILLANT
586,49.070865,6.188770,VALERIANE
225,49.070585,6.190306,VALERIANE
470,49.110560,6.218337,VALERY
464,49.110656,6.218282,VALERY
143,49.123933,6.176746,PLACE<br>VALLADIER
980,49.078400,6.265351,LES<br>VALLONS
968,49.077760,6.265101,LES<br>VALLONS
714,49.093270,6.093405,VAL<br>DE<br>METZ
715,49.093369,6.092531,VAL<br>DE<br>METZ
254,49.095763,6.180679,VANDERNOOT
237,49.095555,6.180705,VANDERNOOT
759,49.156509,6.239068,VANY
757,49.156189,6.239552,VANY
117,49.119605,6.171465,QUAI<br>VAUTRIN
8,49.119169,6.170879,QUAI<br>VAUTRIN
713,49.093080,6.080640,VAUX
976,49.056540,6.239320,VILLAGE<br>CANADIEN
984,49.056185,6.239601,VILLAGE<br>CANADIEN
698,49.091515,6.266735,VECRIN
699,49.091556,6.266926,VECRIN
824,49.080128,6.058151,VERDUN
853,49.080128,6.058151,VERDUN
684,49.102299,6.146406,VERGERS
683,49.101906,6.146168,VERGERS
67,49.108240,6.167981,VERLAINE
36,49.109510,6.166875,VERLAINE
887,49.113330,6.027887,VERLIN
889,49.113328,6.027888,VERLIN
771,49.145264,6.005350,VERNEVILLE
769,49.145044,6.005744,VERNEVILLE
844,49.006553,6.094864,VEZON
842,49.006553,6.094864,VEZON
221,49.125086,6.153174,VICTOIRE
558,49.124987,6.153064,VICTOIRE
14,49.103859,6.108081,VIEILLES<br>EAUX
15,49.103770,6.108311,VIEILLES<br>EAUX
421,49.129368,6.145365,LES<br>VIGNES
417,49.128849,6.145215,LES<br>VIGNES
950,49.146972,6.121133,VIGNEULLES
5080,49.041999,6.156723,VIGNOTTES
5079,49.041971,6.156648,VIGNOTTES
217,49.112731,6.157751,VILLAS
204,49.112647,6.157929,VILLAS
650,49.077253,6.324477,VILLERS
651,49.077215,6.323694,VILLERS
758,49.151940,6.247575,VILLERS-L'ORME
6100,49.123270,6.171396,ST-VINCENT
6105,49.123891,6.172134,ST-VINCENT
610,49.125353,6.206442,VOLO
596,49.125279,6.206402,VOLO
504,49.086565,6.156623,VOLONTAIRES
533,49.086587,6.156651,VOLONTAIRES
80,49.093539,6.132516,VOSGES
72,49.093670,6.132950,VOSGES
865,49.080900,6.102280,WAVES<br>ACTISUD
636,49.152951,6.145005,WOIPPY<br>CHATEAU
634,49.152567,6.145716,WOIPPY<br>CHATEAU
6010,49.150349,6.173323,P+R<br>WOIPPY
6015,49.150349,6.173321,P+R<br>WOIPPY
637,49.151276,6.150050,WOIPPY-HOTEL<br>DE<br>VILLE
633,49.151276,6.150049,WOIPPY-HOTEL<br>DE<br>VILLE
705,49.075077,6.106751,ZAC<br>D'AUGNY
708,49.074174,6.107641,ZAC<br>D'AUGNY
864,49.077468,6.113065,ZAC<br>LES<br>GRAVIERES
878,49.071125,6.228467,ZAC<br>PELTRE
877,49.070906,6.228486,ZAC<br>PELTRE
875,49.159749,6.159053,ZONE<br>HERGOTT
884,49.158829,6.158544,ZONE<br>HERGOTT
